[
    {
        "latitude": 30.631094314521196,
        "longitude": -96.3545317265112,
        "value": "1513",
        "label": "Academic Village",
        "timed_stop": false
    },
    {
        "latitude": 30.605286097841596,
        "longitude": -96.3505714446647,
        "value": "0517",
        "label": "Ag Building",
        "timed_stop": false
    },
    {
        "latitude": 30.605638808348093,
        "longitude": -96.3497949451086,
        "value": "0516",
        "label": "Ag Building",
        "timed_stop": false
    },
    {
        "latitude": 30.62483403830729,
        "longitude": -96.3525066585843,
        "value": "1514",
        "label": "Aggie Station",
        "timed_stop": true
    },
    {
        "latitude": 30.6248689070266,
        "longitude": -96.35249861195679,
        "value": "1505",
        "label": "Aggie Station",
        "timed_stop": false
    },
    {
        "latitude": 30.606463587669307,
        "longitude": -96.3162217328681,
        "value": "2616",
        "label": "Alpine Circle",
        "timed_stop": false
    },
    {
        "latitude": 30.6375410042728,
        "longitude": -96.31973274467778,
        "value": "1208",
        "label": "April Bloom - East",
        "timed_stop": false
    },
    {
        "latitude": 30.637673773626894,
        "longitude": -96.3198963594375,
        "value": "1221",
        "label": "April Bloom - West",
        "timed_stop": false
    },
    {
        "latitude": 30.605672335962808,
        "longitude": -96.3108304924268,
        "value": "2606",
        "label": "Arbor Square",
        "timed_stop": false
    },
    {
        "latitude": 30.61566758845259,
        "longitude": -96.3126731701298,
        "value": "2711",
        "label": "Arbors @ Wolf Pen Creek",
        "timed_stop": false
    },
    {
        "latitude": 30.616165138254495,
        "longitude": -96.31208442521599,
        "value": "2705",
        "label": "Arbors @ Wolf Pen Creek",
        "timed_stop": false
    },
    {
        "latitude": 30.61774898277219,
        "longitude": -96.34333886762488,
        "value": "0106",
        "label": "Asbury Water Tower",
        "timed_stop": true
    },
    {
        "latitude": 30.631927140469994,
        "longitude": -96.32267110482881,
        "value": "1222",
        "label": "Ashburn",
        "timed_stop": true
    },
    {
        "latitude": 30.603152400443093,
        "longitude": -96.37853749862539,
        "value": "0203",
        "label": "Atlas Pear Dr - IB",
        "timed_stop": false
    },
    {
        "latitude": 30.60312960166509,
        "longitude": -96.3788379060529,
        "value": "0206",
        "label": "Atlas Pear Dr OB",
        "timed_stop": false
    },
    {
        "latitude": 30.6396317863245,
        "longitude": -96.32602252519258,
        "value": "1210",
        "label": "Autumn Cir",
        "timed_stop": true
    },
    {
        "latitude": 30.628689713996,
        "longitude": -96.34202190292008,
        "value": "0413",
        "label": "Becky Gates Center",
        "timed_stop": true
    },
    {
        "latitude": 30.615735984786497,
        "longitude": -96.34317257065608,
        "value": "0602",
        "label": "Beutel",
        "timed_stop": false
    },
    {
        "latitude": 30.615797675597484,
        "longitude": -96.3432208504212,
        "value": "0301",
        "label": "Beutel",
        "timed_stop": false
    },
    {
        "latitude": 30.6156863639168,
        "longitude": -96.3431269731001,
        "value": "0802",
        "label": "Beutel",
        "timed_stop": false
    },
    {
        "latitude": 30.596454924133695,
        "longitude": -96.38468646315849,
        "value": "4812",
        "label": "Biomedical Way",
        "timed_stop": false
    },
    {
        "latitude": 30.596580987964913,
        "longitude": -96.384171478997,
        "value": "4813",
        "label": "Biomedical Way",
        "timed_stop": false
    },
    {
        "latitude": 30.6421383107983,
        "longitude": -96.4676740150257,
        "value": "47L1",
        "label": "Blinn",
        "timed_stop": false
    },
    {
        "latitude": 30.663200000000003,
        "longitude": -96.3519,
        "value": "1216",
        "label": "Blinn College",
        "timed_stop": true
    },
    {
        "latitude": 30.6421302641708,
        "longitude": -96.467302529055,
        "value": "4704",
        "label": "Blinn-RELLIS",
        "timed_stop": true
    },
    {
        "latitude": 30.606218165529906,
        "longitude": -96.3134402819538,
        "value": "2605",
        "label": "Brentwood",
        "timed_stop": true
    },
    {
        "latitude": 30.626436658289204,
        "longitude": -96.3097509032339,
        "value": "2207",
        "label": "Briarwood",
        "timed_stop": false
    },
    {
        "latitude": 30.65618101693279,
        "longitude": -96.343439450469,
        "value": "1214",
        "label": "Broadmoor - East",
        "timed_stop": false
    },
    {
        "latitude": 30.656100550657605,
        "longitude": -96.34324230809459,
        "value": "1217",
        "label": "Broadmoor - West",
        "timed_stop": false
    },
    {
        "latitude": 30.599063372556188,
        "longitude": -96.3526582034026,
        "value": "0514",
        "label": "Bush School",
        "timed_stop": true
    },
    {
        "latitude": 30.599166637609393,
        "longitude": -96.3527574451421,
        "value": "0510",
        "label": "Bush School",
        "timed_stop": true
    },
    {
        "latitude": 30.647415557349692,
        "longitude": -96.473686186891,
        "value": "4701",
        "label": "CIR",
        "timed_stop": false
    },
    {
        "latitude": 30.6016396344685,
        "longitude": -96.33894272678748,
        "value": "3613",
        "label": "Callaway Villas",
        "timed_stop": false
    },
    {
        "latitude": 30.646649786630302,
        "longitude": -96.3335514863462,
        "value": "1212",
        "label": "Carter Creek Shopping Center",
        "timed_stop": false
    },
    {
        "latitude": 30.612108296877597,
        "longitude": -96.30682193081509,
        "value": "2613",
        "label": "Colgate Circle",
        "timed_stop": false
    },
    {
        "latitude": 30.637899079197595,
        "longitude": -96.35690145831708,
        "value": "1517",
        "label": "College Ave @ Sulphur Springs",
        "timed_stop": false
    },
    {
        "latitude": 30.619511194200005,
        "longitude": -96.34677611868239,
        "value": "1516",
        "label": "College Main Parking Garage",
        "timed_stop": false
    },
    {
        "latitude": 30.6200610470808,
        "longitude": -96.3473004905761,
        "value": "1503",
        "label": "College Main Parking Garage",
        "timed_stop": false
    },
    {
        "latitude": 30.6152035662653,
        "longitude": -96.3374031387212,
        "value": "0103",
        "label": "Commons",
        "timed_stop": true
    },
    {
        "latitude": 30.623963661430103,
        "longitude": -96.3128367848895,
        "value": "2204",
        "label": "Cripple Creek - East",
        "timed_stop": false
    },
    {
        "latitude": 30.624044127705297,
        "longitude": -96.31278448181058,
        "value": "2208",
        "label": "Cripple Creek - West",
        "timed_stop": false
    },
    {
        "latitude": 30.573125000000005,
        "longitude": -96.32083599999999,
        "value": "4002",
        "label": "Deacon - West",
        "timed_stop": true
    },
    {
        "latitude": 30.593804901468992,
        "longitude": -96.36692621510778,
        "value": "3409",
        "label": "Easterwood Airport",
        "timed_stop": true
    },
    {
        "latitude": 30.615575052236004,
        "longitude": -96.29983879922858,
        "value": "2610",
        "label": "Eastmark/Windsor Point",
        "timed_stop": false
    },
    {
        "latitude": 30.641135164566993,
        "longitude": -96.3293524878831,
        "value": "1211",
        "label": "Element @ University Park",
        "timed_stop": false
    },
    {
        "latitude": 30.611864215842704,
        "longitude": -96.31844528427389,
        "value": "2704",
        "label": "Enclave",
        "timed_stop": false
    },
    {
        "latitude": 30.6440131750115,
        "longitude": -96.47410058820851,
        "value": "47L4",
        "label": "Energy System Lab",
        "timed_stop": false
    },
    {
        "latitude": 30.615285373645197,
        "longitude": -96.3661322811921,
        "value": "0201",
        "label": "Equine Center - IB",
        "timed_stop": false
    },
    {
        "latitude": 30.615561641190094,
        "longitude": -96.3659901241058,
        "value": "1509",
        "label": "Equine Center - OB",
        "timed_stop": false
    },
    {
        "latitude": 30.6198129427322,
        "longitude": -96.3563435588088,
        "value": "0607",
        "label": "Facilities Services",
        "timed_stop": false
    },
    {
        "latitude": 30.619796849477098,
        "longitude": -96.3563529465409,
        "value": "0609",
        "label": "Facilities Services",
        "timed_stop": false
    },
    {
        "latitude": 30.616422630335194,
        "longitude": -96.34311624426338,
        "value": "1226",
        "label": "Fish Pond",
        "timed_stop": false
    },
    {
        "latitude": 30.61643335917189,
        "longitude": -96.34302236694231,
        "value": "0401",
        "label": "Fish Pond",
        "timed_stop": false
    },
    {
        "latitude": 30.616437382485707,
        "longitude": -96.34360977075158,
        "value": "0406",
        "label": "Fish Pond",
        "timed_stop": false
    },
    {
        "latitude": 30.616437382485707,
        "longitude": -96.3431591596102,
        "value": "0105",
        "label": "Fish Pond",
        "timed_stop": false
    },
    {
        "latitude": 30.59197161149809,
        "longitude": -96.3442199733388,
        "value": "3516",
        "label": "Fox Run",
        "timed_stop": false
    },
    {
        "latitude": 30.601535028310707,
        "longitude": -96.35759346828418,
        "value": "0512",
        "label": "GERB",
        "timed_stop": false
    },
    {
        "latitude": 30.602166688571394,
        "longitude": -96.35314100105408,
        "value": "0509",
        "label": "GGB",
        "timed_stop": false
    },
    {
        "latitude": 30.60183543573829,
        "longitude": -96.3528231592669,
        "value": "0515",
        "label": "GGB",
        "timed_stop": false
    },
    {
        "latitude": 30.62179999999999,
        "longitude": -96.3576,
        "value": "0608",
        "label": "GSC",
        "timed_stop": true
    },
    {
        "latitude": 30.593953764078194,
        "longitude": -96.3367781839834,
        "value": "3603",
        "label": "Gateway",
        "timed_stop": false
    },
    {
        "latitude": 30.59140700646681,
        "longitude": -96.33631684400538,
        "value": "3507",
        "label": "Gridiron",
        "timed_stop": false
    },
    {
        "latitude": 30.6118883557253,
        "longitude": -96.318500269562,
        "value": "2712",
        "label": "HEB",
        "timed_stop": false
    },
    {
        "latitude": 30.612002349615196,
        "longitude": -96.3479361741505,
        "value": "0116",
        "label": "HEEP",
        "timed_stop": false
    },
    {
        "latitude": 30.597861742845883,
        "longitude": -96.3953549501511,
        "value": "0415",
        "label": "Health Science Center",
        "timed_stop": true
    },
    {
        "latitude": 30.629843063941184,
        "longitude": -96.3391532802077,
        "value": "0414",
        "label": "Hensel @ Texas",
        "timed_stop": false
    },
    {
        "latitude": 30.609030461849585,
        "longitude": -96.3205467951624,
        "value": "2618",
        "label": "Holleman Oaks - North",
        "timed_stop": true
    },
    {
        "latitude": 30.609228945328514,
        "longitude": -96.3208485436945,
        "value": "2703",
        "label": "Holleman Oaks - South",
        "timed_stop": false
    },
    {
        "latitude": 30.584179793845397,
        "longitude": -96.3374567829047,
        "value": "3618",
        "label": "Holleman South - OB",
        "timed_stop": true
    },
    {
        "latitude": 30.610976404605896,
        "longitude": -96.34204336059348,
        "value": "3621",
        "label": "Hotel/Joe Routt",
        "timed_stop": true
    },
    {
        "latitude": 30.606608426964794,
        "longitude": -96.3566707883281,
        "value": "0402",
        "label": "Houston Bld",
        "timed_stop": false
    },
    {
        "latitude": 30.633537807079406,
        "longitude": -96.3542514356524,
        "value": "1512",
        "label": "Howdy Street",
        "timed_stop": false
    },
    {
        "latitude": 30.5888522022279,
        "longitude": -96.3336654802361,
        "value": "3514",
        "label": "Jones Butler @ Harvey Mitchell",
        "timed_stop": true
    },
    {
        "latitude": 30.609780139313994,
        "longitude": -96.3467466143815,
        "value": "0503",
        "label": "Kleberg",
        "timed_stop": false
    },
    {
        "latitude": 30.6098337834974,
        "longitude": -96.34687670152638,
        "value": "0803",
        "label": "Kleberg",
        "timed_stop": false
    },
    {
        "latitude": 30.637732782228802,
        "longitude": -96.3270846800259,
        "value": "1219",
        "label": "Laurel Ridge - West",
        "timed_stop": true
    },
    {
        "latitude": 30.588382815622303,
        "longitude": -96.33800663578549,
        "value": "3606",
        "label": "Legacy",
        "timed_stop": false
    },
    {
        "latitude": 30.607116705603396,
        "longitude": -96.31767146692698,
        "value": "2604",
        "label": "Lemon Tree",
        "timed_stop": false
    },
    {
        "latitude": 30.611455178943586,
        "longitude": -96.3353485664933,
        "value": "1203",
        "label": "Lewis St",
        "timed_stop": false
    },
    {
        "latitude": 30.611278153137988,
        "longitude": -96.33563958618879,
        "value": "1228",
        "label": "Lewis St",
        "timed_stop": false
    },
    {
        "latitude": 30.6183980773925,
        "longitude": -96.3080383126758,
        "value": "2707",
        "label": "Lofts @ Wolf Pen Creek",
        "timed_stop": false
    },
    {
        "latitude": 30.618403441810806,
        "longitude": -96.30816974092538,
        "value": "2709",
        "label": "Lofts @ Wolf Pen Creek",
        "timed_stop": false
    },
    {
        "latitude": 30.605452394810506,
        "longitude": -96.3451627698638,
        "value": "0118",
        "label": "Lot 100G",
        "timed_stop": false
    },
    {
        "latitude": 30.604350006839603,
        "longitude": -96.3585510169596,
        "value": "0511",
        "label": "Lot 108/UPD", "timed_stop": false
    }, 
    {
        "latitude": 30.5980950950441, 
        "longitude": -96.35517813892238, 
        "value": "0513", 
        "label": "Lot 41/43", 
        "timed_stop": false
    }, 
    {
        "latitude": 30.615805722225, 
        "longitude": -96.3527212353182, 
        "value": "0611", 
        "label": "Lot 71", 
        "timed_stop": false
    }, 
    {
        "latitude": 30.61272520498779, 
        "longitude": -96.342581143533, 
        "value": "4098", 
        "label": "MSC", 
        "timed_stop": true
    }, 
    {
        "latitude": 30.612621939934584, 
        "longitude": -96.34278230922119, 
        "value": "4700", 
        "label": "MSC", 
        "timed_stop": true
    }, 
    {
        "latitude": 30.613157040665, 
        "longitude": -96.34198971640998, 
        "value": "0699", 
        "label": "MSC", 
        "timed_stop": true
    }, 
    {
        "latitude": 30.6129746504411, 
        "longitude": -96.34215199006509, 
        "value": "0399", 
        "label": "MSC", 
        "timed_stop": true
    }, 
    {
        "latitude": 30.6129129596301, 
        "longitude": -96.342327674766, 
        "value": "3500", 
        "label": "MSC", 
        "timed_stop": true
    },
    {
        "latitude": 30.613916105861403, 
        "longitude": -96.3415793384063, 
        "value": "0899", 
        "label": "MSC", 
        "timed_stop": true
    }, 
    {
        "latitude": 30.614086426144002, 
        "longitude": -96.34173758874759, 
        "value": "0599", 
        "label": "MSC", 
        "timed_stop": false
    }, 
    {
        "latitude": 30.614042169692592, 
        "longitude": -96.3416960145054, 
        "value": "0999", 
        "label": "MSC", 
        "timed_stop": true
    }, 
    {
        "latitude": 30.612601823365804, 
        "longitude": -96.343738516792, 
        "value": "0117", 
        "label": "MSC", 
        "timed_stop": true
    }, 
    {
        "latitude": 30.593465602008397, 
        "longitude": -96.32666759649919, 
        "value": "3108", 
        "label": "Madison Pointe", 
        "timed_stop": true
    }, 
    {
        "latitude": 30.59748891577059, 
        "longitude": -96.3211905253643, 
        "value": "3106", 
        "label": "Medina",
        "timed_stop": true
    },
    {
        "latitude": 30.631951280352595,
        "longitude": -96.3226094140178,
        "value": "1207",
        "label": "Munson",
        "timed_stop": true
    },
    {
        "latitude": 30.608599999999996,
        "longitude": -96.36069999999998,
        "value": "0903",
        "label": "NCTM",
        "timed_stop": true
    },
    {
        "latitude": 30.604999999999997,
        "longitude": -96.34270000000001,
        "value": "0806",
        "label": "Olsen Field @ Blue Bell Park",
        "timed_stop": false
    },
    {
        "latitude": 30.60818824816871,
        "longitude": -96.35842629423298,
        "value": "0902",
        "label": "PA 101",
        "timed_stop": false
    },
    {
        "latitude": 30.609277225093695,
        "longitude": -96.3728941305216,
        "value": "0205",
        "label": "PMC East",
        "timed_stop": false
    },
    {
        "latitude": 30.60925308521109,
        "longitude": -96.37316637475288,
        "value": "0204",
        "label": "PMC West",
        "timed_stop": false
    },
    {
        "latitude": 30.598006582141295,
        "longitude": -96.3432101215846,
        "value": "0804",
        "label": "Park West",
        "timed_stop": false
    },
    {
        "latitude": 30.597293114500804,
        "longitude": -96.33839823832501,
        "value": "3612",
        "label": "Park West",
        "timed_stop": false
    },
    {
        "latitude": 30.598183607946808,
        "longitude": -96.3432275559442,
        "value": "0808",
        "label": "Park West",
        "timed_stop": true
    },
    {
        "latitude": 30.5995,
        "longitude": -96.34199999999998,
        "value": "0112",
        "label": "Park West",
        "timed_stop": true
    },
    {
        "latitude": 30.595958715436396,
        "longitude": -96.3398600423252,
        "value": "3605",
        "label": "Park West 2",
        "timed_stop": false
    },
    {
        "latitude": 30.604879743151706,
        "longitude": -96.34886421852498,
        "value": "4005",
        "label": "Physical Education",
        "timed_stop": false
    },
    {
        "latitude": 30.6049561861131,
        "longitude": -96.3489715068919,
        "value": "4006",
        "label": "Physical Education",
        "timed_stop": false
    },
    {
        "latitude": 30.640952774342995,
        "longitude": -96.4861758939132,
        "value": "47L3",
        "label": "RIC",
        "timed_stop": false
    },
    {
        "latitude": 30.607236063911685,
        "longitude": -96.34486638574998,
        "value": "2612",
        "label": "Rec Center",
        "timed_stop": false
    },
    {
        "latitude": 30.606871283463907,
        "longitude": -96.34480067162518,
        "value": "0805",
        "label": "Rec Center",
        "timed_stop": false
    },
    {
        "latitude": 30.607984400271405,
        "longitude": -96.31277241186929,
        "value": "2615",
        "label": "Redstone",
        "timed_stop": true
    },
    {
        "latitude": 30.6069530908437,
        "longitude": -96.34810649443308,
        "value": "0508",
        "label": "Reed Arena",
        "timed_stop": false
    },
    {
        "latitude": 30.605614668465495,
        "longitude": -96.3474399654531,
        "value": "0101",
        "label": "Reed Arena",
        "timed_stop": true
    },
    {
        "latitude": 30.5952050146583,
        "longitude": -96.3236407234455,
        "value": "3107",
        "label": "Renaissance Park",
        "timed_stop": false
    },
    {
        "latitude": 30.62839198877761,
        "longitude": -96.35975398777448,
        "value": "1508",
        "label": "Reveille Ranch",
        "timed_stop": true
    },
    {
        "latitude": 30.617826766838192,
        "longitude": -96.3101492112964,
        "value": "2706",
        "label": "River Oaks Townhomes",
        "timed_stop": false
    },
    {
        "latitude": 30.61783615457029,
        "longitude": -96.3101921266432,
        "value": "2710",
        "label": "River Oaks Townhomes",
        "timed_stop": false
    },
    {
        "latitude": 30.574121509439987,
        "longitude": -96.30656712094348,
        "value": "3307",
        "label": "Rock Prairie",
        "timed_stop": false
    },
    {
        "latitude": 30.574075911884,
        "longitude": -96.30632572211779,
        "value": "3404",
        "label": "Rock Prairie",
        "timed_stop": false
    },
    {
        "latitude": 30.6196654212276,
        "longitude": -96.3384290837305,
        "value": "0416",
        "label": "Ross and Bizzell",
        "timed_stop": false
    },
    {
        "latitude": 30.619753934130305,
        "longitude": -96.33824132908829,
        "value": "0115",
        "label": "Ross and Bizzell",
        "timed_stop": false
    },
    {
        "latitude": 30.617816038001504,
        "longitude": -96.3411072695915,
        "value": "0417",
        "label": "Ross and Ireland",
        "timed_stop": false
    },
    {
        "latitude": 30.617732889517107,
        "longitude": -96.34118907697139,
        "value": "0113",
        "label": "Ross and Ireland",
        "timed_stop": false
    },
    {
        "latitude": 30.6112124390133,
        "longitude": -96.32352136513718,
        "value": "2714",
        "label": "Scandia - North",
        "timed_stop": false
    },
    {
        "latitude": 30.611221826745385,
        "longitude": -96.32359512588948,
        "value": "2602",
        "label": "Scandia - South",
        "timed_stop": false
    },
    {
        "latitude": 30.62750551864541,
        "longitude": -96.3065335933288,
        "value": "2206",
        "label": "Scarlett O'Hara",
        "timed_stop": true
    },
    {
        "latitude": 30.609664804319397,
        "longitude": -96.3528338881036,
        "value": "0304",
        "label": "Schoo of Public Health",
        "timed_stop": false
    },
    {
        "latitude": 30.609935707446084,
        "longitude": -96.3532348783752,
        "value": "0408",
        "label": "School of Public Health",
        "timed_stop": false
    },
    {
        "latitude": 30.615498609274493,
        "longitude": -96.33408390486738,
        "value": "0119",
        "label": "SouthSide Rec",
        "timed_stop": false
    },
    {
        "latitude": 30.61551604363419,
        "longitude": -96.3340745171353,
        "value": "1227",
        "label": "Southside Rec",
        "timed_stop": false
    },
    {
        "latitude": 30.6095239883377,
        "longitude": -96.3066100362903,
        "value": "2607",
        "label": "Southwest Parkway @ Cornell",
        "timed_stop": false
    },
    {
        "latitude": 30.612172669897802,
        "longitude": -96.3036515595705,
        "value": "2608",
        "label": "Southwest Parkway @ Dartmouth",
        "timed_stop": false
    },
    {
        "latitude": 30.621933229084796,
        "longitude": -96.3492920308883,
        "value": "1515",
        "label": "Spruce St.",
        "timed_stop": false
    },
    {
        "latitude": 30.6219466401307,
        "longitude": -96.3492719143195,
        "value": "1504",
        "label": "Spruce St.",
        "timed_stop": false
    },
    {
        "latitude": 30.601218527628088,
        "longitude": -96.3582425629045,
        "value": "3302",
        "label": "Technology Loop",
        "timed_stop": false
    },
    {
        "latitude": 30.6202957403836,
        "longitude": -96.3170813809086,
        "value": "2210",
        "label": "The Cambridge",
        "timed_stop": true
    },
    {
        "latitude": 30.626785345481995,
        "longitude": -96.34313636083219,
        "value": "0412",
        "label": "The Gardens 1",
        "timed_stop": false
    },
    {
        "latitude": 30.58149999999999,
        "longitude": -96.32829999999998,
        "value": "4004",
        "label": "The Heights",
        "timed_stop": true
    },
    {
        "latitude": 30.581699999999998,
        "longitude": -96.33639999999998,
        "value": "4001",
        "label": "The Junction",
        "timed_stop": false
    },
    {
        "latitude": 30.593926941986496,
        "longitude": -96.34204336059348,
        "value": "3517",
        "label": "The London",
        "timed_stop": false
    },
    {
        "latitude": 30.620040930511998,
        "longitude": -96.31729863985169,
        "value": "2202",
        "label": "The Marc",
        "timed_stop": true
    },
    {
        "latitude": 30.6215054167214,
        "longitude": -96.3156383523726,
        "value": "2203",
        "label": "The Rail - East",
        "timed_stop": false
    },
    {
        "latitude": 30.621556378695693,
        "longitude": -96.3156410345817,
        "value": "2209",
        "label": "The Rail - West",
        "timed_stop": false
    },
    {
        "latitude": 30.593774056063502,
        "longitude": -96.3260600761211,
        "value": "3103",
        "label": "The Wick",
        "timed_stop": true
    },
    {
        "latitude": 30.591846888771506,
        "longitude": -96.3294088142758,
        "value": "3102",
        "label": "The Woodlands #1",
        "timed_stop": false
    },
    {
        "latitude": 30.591842865457693,
        "longitude": -96.3294718461914,
        "value": "3110",
        "label": "The Woodlands #2",
        "timed_stop": false
    },
    {
        "latitude": 30.58973599015091,
        "longitude": -96.3379932247396,
        "value": "3506",
        "label": "The Zone - West",
        "timed_stop": false
    },
    {
        "latitude": 30.61759609684919,
        "longitude": -96.3020583273207,
        "value": "2611",
        "label": "Trails @ Wolf Pen Creek",
        "timed_stop": true
    },
    {
        "latitude": 30.61779592143271,
        "longitude": -96.35453306761579,
        "value": "0610",
        "label": "Transit",
        "timed_stop": false
    },
    {
        "latitude": 30.617807991374,
        "longitude": -96.3545022222103,
        "value": "0606",
        "label": "Transit",
        "timed_stop": false
    },
    {
        "latitude": 30.601521617264797,
        "longitude": -96.33891456359119,
        "value": "3602",
        "label": "Treehouse",
        "timed_stop": false
    },
    {
        "latitude": 30.6138182052266,
        "longitude": -96.33955024716559,
        "value": "3601",
        "label": "Trigon",
        "timed_stop": true
    },
    {
        "latitude": 30.6139228113844,
        "longitude": -96.33846529355439,
        "value": "2601",
        "label": "Trigon",
        "timed_stop": true
    },
    {
        "latitude": 30.6146054336193,
        "longitude": -96.33908354276919,
        "value": "3499",
        "label": "Trigon",
        "timed_stop": true
    },
    {
        "latitude": 30.614215172184387,
        "longitude": -96.33871608011219,
        "value": "1201",
        "label": "Trigon",
        "timed_stop": true
    },
    {
        "latitude": 30.614342577120194,
        "longitude": -96.3388287328976,
        "value": "3101",
        "label": "Trigon",
        "timed_stop": true
    },
    {
        "latitude": 30.613533891054,
        "longitude": -96.3392927550848,
        "value": "2201",
        "label": "Trigon",
        "timed_stop": true
    },
    {
        "latitude": 30.613956338999095,
        "longitude": -96.3396763109968,
        "value": "2701",
        "label": "Trigon",
        "timed_stop": true
    },
    {
        "latitude": 30.6172407041336,
        "longitude": -96.36399053716599,
        "value": "0403",
        "label": "Turb Lab -IB",
        "timed_stop": false
    },
    {
        "latitude": 30.59149954268329,
        "longitude": -96.3559479329555,
        "value": "3311",
        "label": "Turbo Lab",
        "timed_stop": true
    },
    {
        "latitude": 30.617286301689496,
        "longitude": -96.36406161570919,
        "value": "0202",
        "label": "Turf Lab - OB",
        "timed_stop": false
    },
    {
        "latitude": 30.5960713682217,
        "longitude": -96.33652605632099,
        "value": "3509",
        "label": "U-Club",
        "timed_stop": true
    },
    {
        "latitude": 30.627335198362804,
        "longitude": -96.3276814715672,
        "value": "1224",
        "label": "University Square - East",
        "timed_stop": false
    },
    {
        "latitude": 30.627352632722403,
        "longitude": -96.3277042703452,
        "value": "1205",
        "label": "University Square - West",
        "timed_stop": false
    },
    {
        "latitude": 30.58989424049219,
        "longitude": -96.34655617753009,
        "value": "3515",
        "label": "University Trails",
        "timed_stop": false
    },
    {
        "latitude": 30.611300000000004,
        "longitude": -96.358,
        "value": "0905",
        "label": "VTED",
        "timed_stop": false
    },
    {
        "latitude": 30.615160650918504,
        "longitude": -96.352072140698,
        "value": "0604",
        "label": "Vet School",
        "timed_stop": false
    },
    {
        "latitude": 30.614362693688996,
        "longitude": -96.3514257282868,
        "value": "0612",
        "label": "Vet School",
        "timed_stop": false
    },
    {
        "latitude": 30.638023801924195,
        "longitude": -96.36177905570139,
        "value": "1511",
        "label": "Villa Maria @ Green St. ",
        "timed_stop": false
    },
    {
        "latitude": 30.610796696591198,
        "longitude": -96.32026382209439,
        "value": "2713",
        "label": "Village St",
        "timed_stop": true
    },
    {
        "latitude": 30.6260933355149,
        "longitude": -96.3558406445885,
        "value": "1506",
        "label": "Village on the Creek",
        "timed_stop": false
    },
    {
        "latitude": 30.612116343505203,
        "longitude": -96.34954952296908,
        "value": "0603",
        "label": "Wehner N",
        "timed_stop": false
    },
    {
        "latitude": 30.61187762688861,
        "longitude": -96.3489245682314,
        "value": "0613",
        "label": "Wehner S",
        "timed_stop": false
    },
    {
        "latitude": 30.6121270723419,
        "longitude": -96.3487019448699,
        "value": "0906",
        "label": "Wehner S",
        "timed_stop": false
    },
    {
        "latitude": 30.632918216760096,
        "longitude": -96.363906047577,
        "value": "1510",
        "label": "Wellborn @ Tee",
        "timed_stop": false
    },
    {
        "latitude": 30.58749634549,
        "longitude": -96.3149409779871,
        "value": "3403",
        "label": "Welsh @ Balcones",
        "timed_stop": false
    },
    {
        "latitude": 30.581824814190007,
        "longitude": -96.31004192292939,
        "value": "3410",
        "label": "Welsh @ Deacon",
        "timed_stop": false
    },
    {
        "latitude": 30.5874829344441,
        "longitude": -96.31497182339258,
        "value": "3402",
        "label": "Welsh @ First Baptist",
        "timed_stop": true
    },
    {
        "latitude": 30.584807430792296,
        "longitude": -96.31299637633539,
        "value": "3406",
        "label": "Welsh @ Navarro",
        "timed_stop": false
    },
    {
        "latitude": 30.5847926786418,
        "longitude": -96.31301917511338,
        "value": "3407",
        "label": "Welsh @ Navarro",
        "timed_stop": false
    },
    {
        "latitude": 30.6074425940181,
        "longitude": -96.3549367400966,
        "value": "0306",
        "label": "White Creek",
        "timed_stop": true
    },
    {
        "latitude": 30.607627666451204,
        "longitude": -96.3544391902947,
        "value": "0307",
        "label": "White Creek",
        "timed_stop": true
    },
    {
        "latitude": 30.6066607300437,
        "longitude": -96.356638601818,
        "value": "0519",
        "label": "White Creek #2",
        "timed_stop": false
    },
    {
        "latitude": 30.646643081107296,
        "longitude": -96.3335756262288,
        "value": "1218",
        "label": "Willow Oaks",
        "timed_stop": false
    },
    {
        "latitude": 30.590430682327188,
        "longitude": -96.358211717499,
        "value": "3614",
        "label": "Wind Tunnel",
        "timed_stop": false
    },
    {
        "latitude": 30.62091130738921,
        "longitude": -96.33815818060388,
        "value": "0419",
        "label": "Wisenbaker - East",
        "timed_stop": false
    },
    {
        "latitude": 30.6198183071505,
        "longitude": -96.30440257813939,
        "value": "2708",
        "label": "Wolf Pen Creek",
        "timed_stop": true
    },
    {
        "latitude": 30.5939752217516,
        "longitude": -96.3392605685747,
        "value": "3513",
        "label": "Woodsman",
        "timed_stop": false
    },
    {
        "latitude": 30.635530688496292,
        "longitude": -96.47235044672189,
        "value": "4712",
        "label": "WorkForce Ed Complex",
        "timed_stop": false
    },
    {
        "latitude": 30.5956797656822,
        "longitude": -96.3227596177316,
        "value": "3105",
        "label": "Yellow House",
        "timed_stop": false
    },
    {
        "latitude": 30.62700126332049,
        "longitude": -96.3584973727761,
        "value": "1507",
        "label": "Z Islander",
        "timed_stop": false
    },
    {
        "latitude": 30.621592588519597,
        "longitude": -96.3393195771766,
        "value": "0411",
        "label": "Zachry",
        "timed_stop": false
    }
]